City_ID,City,Lat,Lng,Max Temp,Humidity,Cloudiness,Wind Speed,Country,Date
0,kalkaman,51.9525,76.0211,23.13,41,41,11,KZ,1686087655
1,nagqu,31.5,92.0,4.48,63,63,100,CN,1686087655
2,sitka,57.0531,-135.33,11.94,76,76,75,US,1686087078
3,bilibino,68.0546,166.4372,11.94,51,51,97,RU,1686087655
4,udachny,66.4167,112.4,3.03,69,69,6,RU,1686087655
5,port-aux-francais,-49.35,70.2167,1.96,90,90,100,TF,1686087655
6,blackmans bay,-43.0167,147.3167,10.41,93,93,10,AU,1686087655
7,romans-sur-isere,45.0464,5.0562,19.96,74,74,82,FR,1686087656
8,flying fish cove,-10.4217,105.6791,24.82,83,83,100,CX,1686087656
9,bamboo flat,11.7,92.7167,25.05,94,94,100,IN,1686087656
10,georgetown,5.4112,100.3354,27.96,87,87,20,MY,1686087656
11,jumelles,47.4351,-0.1037,21.1,65,65,87,FR,1686087656
12,maralal,1.0968,36.698,14.35,82,82,91,KE,1686087656
13,lincoln city,44.9582,-124.0179,31.04,55,55,1,US,1686087561
14,neijiang,29.5835,105.0622,22.12,75,75,99,CN,1686087656
15,longyearbyen,78.2186,15.6401,3.91,70,70,20,SJ,1686087656
16,bethel,41.3712,-73.414,21.61,60,60,0,US,1686087657
17,qarqaraly,49.4058,75.4742,15.57,51,51,2,KZ,1686087657
18,puerto natales,-51.7236,-72.4875,3.42,85,85,38,CL,1686087657
19,nizhnesortymskiy,62.4397,71.7603,14.92,47,47,30,RU,1686087657
20,whitehorse,60.7161,-135.0538,12.23,76,76,75,CA,1686087657
21,san patricio,28.017,-97.5169,32.05,45,45,26,US,1686087657
22,malango,-2.9627,119.9001,18.29,97,97,26,ID,1686087657
23,albany,42.6001,-73.9662,19.13,60,60,64,US,1686087526
24,puerto ayora,-0.7393,-90.3518,28.98,96,96,74,EC,1686087657
25,dudinka,69.4058,86.1778,7.57,61,61,7,RU,1686087658
26,bredasdorp,-34.5322,20.0403,9.49,73,73,56,ZA,1686087658
27,ongjin,37.9347,125.3619,17.68,91,91,100,KP,1686087658
28,constantia,44.1833,28.65,13.38,67,67,93,RO,1686087658
29,adamstown,-25.066,-130.1015,21.27,56,56,74,PN,1686087658
30,iqaluit,63.7506,-68.5145,4.85,75,75,100,CA,1686087658
31,waitangi,-43.9535,-176.5597,11.01,95,95,100,NZ,1686087658
32,cobija,-11.0267,-68.7692,30.1,74,74,75,BO,1686087658
33,saint-francois,46.4154,3.9054,16.69,77,77,0,FR,1686087659
34,st. john's,47.5649,-52.7093,10.31,98,98,100,CA,1686087585
35,paso de los toros,-32.8167,-56.5167,19.18,79,79,63,UY,1686087659
36,conceicao da barra,-18.5933,-39.7322,20.78,72,72,82,BR,1686087607
37,anadyr,64.75,177.4833,10.28,66,66,0,RU,1686087659
38,nemuro,43.3236,145.575,11.38,96,96,99,JP,1686087659
39,grytviken,-54.2811,-36.5092,2.72,95,95,88,GS,1686087659
40,vanino,49.0869,140.2543,12.41,76,76,60,RU,1686087659
41,yellowknife,62.456,-114.3525,11.29,93,93,100,CA,1686087660
42,kirensk,57.7853,108.1119,6.94,69,69,80,RU,1686087660
43,mwinilunga,-11.7358,24.4293,15.56,52,52,72,ZM,1686087660
44,volokolamsk,56.0336,35.9694,11.45,70,70,54,RU,1686087646
45,horta,38.5333,-28.6333,18.8,78,78,40,PT,1686087660
46,wotho,10.1657,166.0102,27.87,81,81,100,MH,1686087660
47,kili,5.6439,169.1211,25.54,86,86,100,MH,1686087660
48,ilulissat,69.2167,-51.1,0.01,86,86,75,GL,1686087660
49,margaret river,-33.95,115.0667,12.35,65,65,95,AU,1686087660
50,ushuaia,-54.8,-68.3,4.81,87,87,40,AR,1686087661
51,nieuw amsterdam,5.8833,-55.0833,26.01,93,93,75,SR,1686087661
52,usinsk,65.9939,57.5281,5.29,89,89,55,RU,1686087661
53,punta arenas,-53.15,-70.9167,5.06,81,81,40,CL,1686087484
54,miranda,3.2499,-76.2281,27.07,84,84,88,CO,1686087661
55,petropavlovsk-kamchatsky,53.0452,158.6483,12.33,44,44,20,RU,1686087661
56,port mathurin,-19.6833,63.4167,24.96,66,66,16,MU,1686087661
57,gutierrez zamora,20.45,-97.0833,33.9,59,59,30,MX,1686087661
58,invercargill,-46.4,168.35,3.59,84,84,45,NZ,1686087662
59,cabo san lucas,22.8909,-109.9124,33.61,27,27,0,MX,1686087559
60,vorgashor,67.5833,63.95,6.07,91,91,93,RU,1686086780
61,kadnikov,59.5022,40.338,5.88,72,72,26,RU,1686087662
62,broome,42.2506,-75.833,19.28,57,57,100,US,1686087068
63,college,64.8569,-147.8028,26.44,28,28,20,US,1686087662
64,thunder bay,48.4001,-89.3168,17.95,34,34,75,CA,1686087662
65,soio,-6.1349,12.3689,22.47,90,90,11,AO,1686087662
66,holualoa,19.6228,-155.9522,26.42,71,71,20,US,1686087070
67,pisco,-13.7,-76.2167,22.03,68,68,2,PE,1686087663
68,sandnessjoen,66.0217,12.6316,6.29,81,81,75,NO,1686087663
69,saipan,15.1355,145.701,28.69,100,100,20,MP,1686087663
70,phibun mangsahan,15.2447,105.2291,25.99,94,94,100,TH,1686087663
71,impfondo,1.6381,18.0667,23.54,82,82,19,CG,1686087663
72,carnarvon,-24.8667,113.6333,18.57,64,64,86,AU,1686087663
73,i-n-salah,27.1935,2.4607,33.79,18,18,51,DZ,1686087663
74,wailua homesteads,22.0669,-159.378,27.24,76,76,20,US,1686087664
75,stanley,54.868,-1.6985,10.29,82,82,75,GB,1686087515
76,ribeira grande,38.5167,-28.7,19.22,68,68,40,PT,1686087367
77,east london,-33.0153,27.9116,16.46,32,32,0,ZA,1686087664
78,tazovsky,67.4667,78.7,10.85,67,67,91,RU,1686087664
79,novodvinsk,64.4165,40.8122,2.33,89,89,100,RU,1686087664
80,ambon,-3.6954,128.1814,28.08,78,78,40,ID,1686087664
81,borskoye,53.0333,51.7167,10.5,85,85,29,RU,1686087665
82,kargopol',61.5071,38.9456,3.83,91,91,10,RU,1686087665
83,pacific grove,36.6177,-121.9166,17.82,90,90,75,US,1686087090
84,minas de marcona,-15.2119,-75.1103,16.13,69,69,3,PE,1686087665
85,ust-nera,64.5667,143.2,7.62,92,92,100,RU,1686087665
86,west island,-12.1568,96.8225,24.99,88,88,40,CC,1686087665
87,edinburgh of the seven seas,-37.0676,-12.3116,13.48,69,69,99,SH,1686087665
88,port elizabeth,-33.918,25.5701,7.16,93,93,0,ZA,1686087666
89,haveri,14.8,75.4,24.66,84,84,67,IN,1686087666
90,piti village,13.4626,144.6933,28.5,80,80,0,GU,1686087105
91,new norfolk,-42.7826,147.0587,11.06,89,89,31,AU,1686087666
92,isafjordur,66.0755,-23.124,5.44,75,75,59,IS,1686087666
93,christchurch,-43.5333,172.6333,4.41,95,95,0,NZ,1686086956
94,chibougamau,49.9168,-74.3659,15.79,31,31,75,CA,1686087580
95,altamira,-3.2033,-52.2064,27.05,94,94,20,BR,1686087667
96,puerto deseado,-47.7503,-65.8938,9.29,41,41,0,AR,1686087667
97,papatowai,-46.5619,169.4708,6.27,78,78,28,NZ,1686087667
98,praia da vitoria,38.7333,-27.0667,17.14,94,94,75,PT,1686087668
99,dahlonega,34.5326,-83.9849,29.99,56,56,27,US,1686087668
100,saudarkrokur,65.7461,-19.6394,7.48,74,74,76,IS,1686087668
101,sao tome,0.3365,6.7273,25.5,80,80,95,ST,1686087668
102,lihue,21.9789,-159.3672,27.58,71,71,20,US,1686087380
103,swan hill,-35.3378,143.5544,15.07,97,97,100,AU,1686087668
104,kidal,18.4411,1.4078,33.88,9,9,10,ML,1686087669
105,zemio,5.0314,25.1361,20.45,98,98,52,CF,1686087669
106,tiksi,71.6872,128.8694,2.75,90,90,53,RU,1686087669
107,peno,56.9262,32.7426,13.03,67,67,99,RU,1686087669
108,callao,-12.0667,-77.15,24.16,69,69,75,PE,1686087669
109,adjumani,3.3779,31.7909,20.14,76,76,15,UG,1686087669
110,enewetak,11.3474,162.3373,28.06,79,79,95,MH,1686087669
111,keminmaa,65.8596,24.8228,3.87,93,93,0,FI,1686087670
112,boa vista,2.8197,-60.6733,27.99,69,69,40,BR,1686087670
113,saldanha,-33.0117,17.9442,7.03,74,74,0,ZA,1686087670
114,corinto,37.9407,22.9573,20.5,60,60,34,GR,1686087670
115,east ballina,-28.8667,153.5833,14.89,66,66,84,AU,1686087670
116,namibe,-15.1961,12.1522,18.9,71,71,2,AO,1686087670
117,magistral'nyy,56.1725,107.4458,7.51,62,62,29,RU,1686087670
118,brak,27.5496,14.2714,32.59,20,20,100,LY,1686087671
119,barclayville,4.6797,-8.2339,24.61,93,93,100,LR,1686087671
120,hithadhoo,-0.6,73.0833,28.29,76,76,33,MV,1686087671
121,mount isa,-20.7333,139.5,12.87,82,82,72,AU,1686087671
122,kosonsoy,41.2561,71.5508,22.31,32,32,3,UZ,1686087671
123,san rafael,-34.6177,-68.3301,17.97,40,40,96,AR,1686087671
124,sesheke,-17.4759,24.2968,16.59,36,36,0,ZM,1686087671
125,obo,5.3998,26.4869,19.71,99,99,100,CF,1686087672
126,buala,-8.145,159.5921,28.49,75,75,83,SB,1686087672
127,bolands,17.0657,-61.8747,29.8,69,69,20,AG,1686087672
128,sabrum,23.0,91.7319,26.28,86,86,96,IN,1686087672
129,mokhsogollokh,61.4681,128.9203,13.0,60,60,92,RU,1686087672
130,remire-montjoly,4.9167,-52.2667,26.02,89,89,75,GF,1686087672
131,nykobing sjaelland,55.9249,11.6711,15.03,84,84,0,DK,1686087648
132,olonkinbyen,70.9221,-8.7187,0.94,79,79,100,SJ,1686087673
133,windhoek,-22.5594,17.0832,17.11,26,26,0,NA,1686087673
134,hulan,45.9833,126.6,21.06,39,39,99,CN,1686087673
135,haiku-pauwela,20.9219,-156.3051,27.01,64,64,40,US,1686087095
136,weno,7.4515,151.8468,26.97,89,89,75,FM,1686087077
137,utrik,11.2278,169.8474,27.48,84,84,85,MH,1686087673
138,esmeraldas,-19.7625,-44.3139,19.58,53,53,0,BR,1686087673
139,hamilton,39.1834,-84.5333,29.68,38,38,40,US,1686087601
140,talnakh,69.4865,88.3972,7.34,79,79,52,RU,1686087674
141,cururupu,-1.8283,-44.8683,24.2,91,91,12,BR,1686087446
142,klyuchi,52.2667,79.1667,20.11,59,59,30,RU,1686087674
143,zhezqazghan,47.7833,67.7667,23.67,31,31,29,KZ,1686087674
144,selfoss,63.9331,-20.9971,7.25,71,71,16,IS,1686087674
145,porto novo,6.4965,2.6036,26.9,88,88,100,BJ,1686087674
146,ponta delgada,37.7333,-25.6667,19.4,88,88,75,PT,1686087568
147,hawaiian paradise park,19.5933,-154.9731,27.8,73,73,40,US,1686087468
148,hadibu,12.65,54.0333,29.16,79,79,57,YE,1686087082
149,majene,-3.5403,118.9707,24.6,88,88,12,ID,1686087675
150,asekeyevo,53.5742,52.7972,10.34,88,88,33,RU,1686087675
151,kathu,7.9178,98.3332,29.83,99,99,100,TH,1686087675
152,atafu village,-8.5421,-172.5159,28.02,77,77,65,TK,1686087675
153,ouallam,14.3188,2.0866,36.88,13,13,73,NE,1686087675
154,polyarnyy,69.1989,33.4478,3.5,75,75,99,RU,1686087675
155,badger,64.8,-147.5333,26.4,28,28,40,US,1686087675
156,kabinda,-6.1333,24.4833,22.35,55,55,75,CD,1686087676
157,kalix,65.853,23.1565,5.93,80,80,98,SE,1686087676
158,thompson,55.7435,-97.8558,22.09,83,83,75,CA,1686087676
159,porto feliz,-23.2147,-47.5239,20.77,59,59,0,BR,1686087676
160,praia,14.9215,-23.5087,24.3,83,83,0,CV,1686087676
161,severo-yeniseyskiy,60.3725,93.0408,13.99,94,94,1,RU,1686087676
162,jamestown,42.097,-79.2353,20.8,37,37,0,US,1686087600
163,badarwas,24.9667,77.5667,31.78,29,29,57,IN,1686087677
164,ilhabela,-23.7781,-45.3581,19.32,84,84,9,BR,1686087677
165,rio verde,21.9333,-99.9833,32.2,30,30,0,MX,1686087677
166,carahue,-38.7,-73.1667,9.54,92,92,100,CL,1686087677
167,baker city,44.7749,-117.8344,27.55,37,37,0,US,1686087677
168,port alfred,-33.5906,26.891,17.25,36,36,0,ZA,1686087677
169,kodiak,57.79,-152.4072,7.73,93,93,100,US,1686087677
170,okhotsk,59.3833,143.3,7.97,65,65,64,RU,1686087677
171,iskateley,67.6803,53.1512,3.65,84,84,99,RU,1686087677
172,fort bragg,35.139,-79.006,30.75,45,45,20,US,1686087678
173,topolobampo,25.6,-109.05,29.95,48,48,75,MX,1686087678
174,santa elena de uairen,4.6167,-61.1333,21.55,84,84,70,VE,1686087678
175,togur,58.3631,82.8265,18.72,72,72,31,RU,1686087678
176,vadso,70.0744,29.7487,4.49,70,70,75,NO,1686087678
177,puerto madryn,-42.7692,-65.0385,13.68,34,34,0,AR,1686087079
178,arno,60.1167,18.6333,8.77,60,60,87,SE,1686087678
179,segorbe,39.8138,-0.4521,20.09,77,77,72,ES,1686087679
180,gazli,40.1333,63.45,30.41,11,11,88,UZ,1686087679
181,lensk,60.7253,114.9278,7.17,69,69,50,RU,1686087679
182,taylor,32.3001,-99.8337,28.7,44,44,75,US,1686087679
183,indre arna,60.4247,5.4764,9.42,86,86,0,NO,1686087679
184,hermanus,-34.4187,19.2345,12.73,64,64,67,ZA,1686087679
185,santa cruz cabralia,-16.2781,-39.0247,23.13,78,78,40,BR,1686087679
186,happy valley-goose bay,53.3168,-60.3315,7.17,81,81,100,CA,1686086895
187,afaahiti,-17.75,-149.2833,27.93,75,75,97,PF,1686087679
188,pimentel,-6.8367,-79.9342,28.16,61,61,0,PE,1686087680
189,tanjung pandan,-2.75,107.65,25.34,92,92,98,ID,1686087680
190,springbok,-29.6643,17.8865,9.67,49,49,0,ZA,1686087680
191,saint-philippe,-21.3585,55.7679,21.77,83,83,35,RE,1686087090
192,diamantino,-14.4086,-56.4461,22.95,38,38,52,BR,1686087680
193,puerto san jose,13.9256,-90.8244,29.94,66,66,98,GT,1686087680
194,heunghae,36.1125,129.3522,19.23,76,76,56,KR,1686087680
195,nar'yan-mar,67.6713,53.087,3.64,84,84,99,RU,1686087680
196,talakan,50.3167,130.3667,15.24,80,80,92,RU,1686087681
197,antsiranana,-12.2787,49.2917,24.36,83,83,57,MG,1686087681
198,revelstoke,50.9832,-118.2023,26.01,34,34,0,CA,1686087681
199,aldinga beach,-35.2793,138.4604,17.04,85,85,45,AU,1686087437
200,beyneu,45.3167,55.2,24.12,62,62,84,KZ,1686087681
201,avarua,-21.2078,-159.775,24.03,60,60,100,CK,1686087681
202,susuman,62.7833,148.1667,13.31,54,54,51,RU,1686087681
203,itoman,26.1247,127.6694,26.43,96,96,40,JP,1686087682
204,la passe,45.5549,-0.8967,20.13,67,67,18,FR,1686087682
205,opuwo,-18.0607,13.84,16.2,32,32,0,NA,1686087682
206,kiunga,-6.1219,141.2906,23.89,98,98,73,PG,1686087682
207,castillos,-34.1667,-53.8333,15.56,77,77,69,UY,1686087682
208,waitara,-38.925,174.25,9.44,73,73,0,NZ,1686087682
209,berdyaush,55.1619,59.1464,12.35,99,99,94,RU,1686087682
210,plain city,41.298,-112.0861,30.09,68,68,57,US,1686087427
211,isangel,-19.55,169.2667,22.06,88,88,75,VU,1686087683
212,caleta de carquin,-11.0925,-77.6267,22.6,75,75,14,PE,1686087683
213,paratinga,-12.6906,-43.1842,25.23,40,40,10,BR,1686087683
214,tocopilla,-22.092,-70.1979,18.36,72,72,14,CL,1686087683
215,stettler,52.3168,-112.7186,22.08,20,20,0,CA,1686087683
216,gabu,12.2833,-14.2167,29.44,52,52,31,GW,1686087683
217,quesnel,52.9999,-122.5029,21.28,19,19,0,CA,1686087684
218,manicore,-5.8092,-61.3003,26.97,89,89,0,BR,1686087684
219,qaqortoq,60.7167,-46.0333,2.8,90,90,100,GL,1686087684
220,port macquarie,-31.4333,152.9167,12.16,80,80,54,AU,1686087606
221,alice springs,-23.7,133.8833,18.75,59,59,78,AU,1686087009
222,hede,33.7681,120.2517,20.42,85,85,96,CN,1686087684
223,aasiaat,68.7098,-52.8699,-0.39,77,77,95,GL,1686087684
224,batken,39.8333,71.0,13.81,35,35,15,KG,1686087684
225,jaithari,23.2333,78.6167,31.23,30,30,17,IN,1686087685
226,nelson bay,-32.7167,152.15,15.56,96,96,3,AU,1686087685
227,mata-utu,-13.2816,-176.1745,27.57,80,80,73,WF,1686087685
228,robertsport,6.7533,-11.3686,26.29,85,85,100,LR,1686087685
229,ust'-kut,56.7938,105.7672,8.1,62,62,50,RU,1686087685
230,onguday,50.75,86.15,13.78,86,86,1,RU,1686087685
231,sao francisco,-15.9486,-44.8644,22.25,32,32,0,BR,1686087090
232,bandarbeyla,9.4942,50.8122,27.77,82,82,100,SO,1686087686
233,dubbo,-32.25,148.6167,10.07,93,93,35,AU,1686087686
234,lebu,-37.6167,-73.65,11.76,89,89,100,CL,1686087686
235,sao felix do xingu,-6.6447,-51.995,24.91,73,73,42,BR,1686087686
236,fale old settlement,-9.3852,-171.2468,28.16,77,77,26,TK,1686087686
237,aswan,24.0934,32.907,35.61,15,15,0,EG,1686087686
238,minot air force base,48.4209,-101.3391,33.1,36,36,0,US,1686087687
239,zag,46.9441,99.165,11.06,64,64,2,MN,1686087687
240,sisimiut,66.9395,-53.6735,-0.49,76,76,85,GL,1686087687
241,changji,44.0167,87.3167,26.44,22,22,0,CN,1686087687
242,touros,-5.1989,-35.4608,25.89,81,81,6,BR,1686087688
243,chonchi,-42.6128,-73.8092,9.56,90,90,44,CL,1686087688
244,camacupa,-12.0167,17.4833,14.17,39,39,5,AO,1686087689
245,fria,10.4167,-13.5833,26.23,94,94,100,GN,1686087689
246,harper,4.375,-7.7169,25.35,89,89,100,LR,1686087689
247,darwin,-12.4611,130.8418,22.16,94,94,0,AU,1686087653
248,vichuga,57.2128,41.9301,10.59,82,82,87,RU,1686087689
249,harstad,68.799,16.5293,4.53,100,100,100,NO,1686087689
250,naze,28.3667,129.4833,22.51,95,95,98,JP,1686087689
251,salalah,17.0151,54.0924,30.05,74,74,20,OM,1686087690
252,khandyga,62.6667,135.6,17.08,63,63,78,RU,1686087690
253,tayaman,13.2295,120.5726,26.69,78,78,60,PH,1686087690
254,ghadamis,30.1337,9.5007,24.7,47,47,63,LY,1686087690
255,tobol'sk,58.2,68.2667,14.68,53,53,26,RU,1686087690
256,ciudad lazaro cardenas,17.9583,-102.2,30.64,59,59,0,MX,1686087690
257,yeppoon,-23.1333,150.7333,15.88,81,81,64,AU,1686087690
258,oranjemund,-28.55,16.4333,12.78,84,84,0,NA,1686087690
259,north tamworth,-31.0778,150.9261,7.06,93,93,6,AU,1686087691
260,northam,51.0333,-4.2167,12.56,80,80,0,GB,1686087691
261,yanchep,-31.55,115.6833,8.07,62,62,100,AU,1686087691
262,veinticinco de mayo,-35.4323,-60.1727,18.88,91,91,91,AR,1686087691
263,cherepanovo,54.2222,83.381,18.66,69,69,50,RU,1686087691
264,karratha,-20.7377,116.8463,16.77,53,53,33,AU,1686087108
265,hobyo,5.3505,48.5268,27.38,82,82,99,SO,1686087691
266,cockburn town,21.4612,-71.1419,28.69,81,81,82,TC,1686087691
267,tamanrasset,22.785,5.5228,28.95,9,9,0,DZ,1686087103
268,antalaha,-14.9003,50.2788,22.04,86,86,0,MG,1686087692
269,ocean city,39.2776,-74.5746,28.1,61,61,85,US,1686087472
270,kirakira,-10.4544,161.9205,27.97,78,78,100,SB,1686087692
271,north bend,43.4065,-124.2243,26.25,59,59,0,US,1686087418
272,pemangkat,1.1667,108.9667,24.86,87,87,100,ID,1686087692
273,beloyarskiy,63.7119,66.6722,10.94,73,73,97,RU,1686087692
274,ta`u,-14.2336,-169.5144,27.33,77,77,98,AS,1686087692
275,nadym,65.5333,72.5167,13.63,58,58,73,RU,1686087692
276,ilha de mocambique,-15.0342,40.7358,25.49,75,75,0,MZ,1686087692
277,tura,25.5198,90.2201,26.07,60,60,2,IN,1686087693
278,asau,46.4333,26.4,15.51,79,79,100,RO,1686087693
279,whangarei,-35.7317,174.3239,13.77,81,81,99,NZ,1686087693
280,turpan,42.9333,89.1667,30.94,13,13,0,CN,1686087693
281,kaifeng,34.7911,114.3483,22.45,62,62,100,CN,1686087693
282,magadan,59.5667,150.8,13.63,68,68,64,RU,1686087693
283,poronaysk,49.2167,143.1167,12.73,78,78,10,RU,1686087693
284,seeb,23.6703,58.1891,36.05,24,24,0,OM,1686087693
285,mabaruma,8.2,-59.7833,25.35,89,89,20,GY,1686087693
286,buchanan,5.8808,-10.0467,25.62,89,89,100,LR,1686087694
287,klaksvik,62.2266,-6.589,8.51,83,83,24,FO,1686087694
288,nikolayevsk-on-amure,53.1406,140.73,16.3,69,69,16,RU,1686087694
289,ordynskoye,54.3656,81.8994,20.61,69,69,56,RU,1686087694
290,kapa'a,22.0752,-159.319,27.99,76,76,20,US,1686087694
291,kerbakhiar,40.1067,46.0383,11.09,80,80,71,AZ,1686087694
292,nafplio,37.5683,22.8053,18.87,62,62,34,GR,1686087694
293,wetaskiwin,52.9668,-113.3687,23.7,38,38,0,CA,1686087481
294,rocky mountain house,52.3668,-114.9188,20.06,32,32,0,CA,1686087695
295,palmer,42.1584,-72.3287,19.99,54,54,100,US,1686087695
296,cortez,37.3489,-108.5859,26.42,30,30,0,US,1686087695
297,thinadhoo,0.5333,72.9333,27.89,75,75,73,MV,1686087695
298,ca' savio,45.4538,12.4573,19.24,94,94,0,IT,1686087695
299,al qusayr,34.5091,36.5798,19.42,59,59,0,SY,1686087695
300,at taj,24.2049,23.2857,33.26,21,21,6,LY,1686087695
301,bridgewater,44.3835,-64.5155,12.28,92,92,100,CA,1686087486
302,nuuk,64.1835,-51.7216,1.34,100,100,100,GL,1686087610
303,altar,30.7,-111.8167,33.68,9,9,0,MX,1686087696
304,meizhou,24.2977,116.1072,24.65,98,98,100,CN,1686087696
305,sur,22.5667,59.5289,33.08,43,43,0,OM,1686087696
306,punta umbria,37.1821,-6.9661,20.69,65,65,100,ES,1686087696
307,skovorodino,53.9833,123.9167,8.85,81,81,99,RU,1686087696
308,kalulushi,-12.8378,28.0919,14.31,58,58,0,ZM,1686087696
309,rostusa,41.61,20.6,14.92,87,87,100,MK,1686087696
310,tolanaro,-25.0319,46.9987,20.04,94,94,0,MG,1686087696
311,esquel,-42.9,-71.3167,2.25,92,92,10,AR,1686087648
312,papao,-17.75,-149.55,28.82,75,75,83,PF,1686087696
313,san jose del guaviare,2.5729,-72.6459,23.7,96,96,94,CO,1686087697
314,yemetsk,63.4721,41.7941,2.08,85,85,56,RU,1686087697
315,suntar,62.1444,117.6319,8.55,60,60,60,RU,1686087697
316,ouricuri,-7.8825,-40.0817,22.82,60,60,1,BR,1686087467
317,alpena,45.0617,-83.4327,22.18,32,32,0,US,1686087637
318,chrysoupolis,40.9856,24.6939,21.61,88,88,0,GR,1686087697
319,sompeta,18.9333,84.6,28.21,74,74,36,IN,1686087697
320,martinho campos,-19.3317,-45.2369,17.61,47,47,0,BR,1686087697
321,huarmey,-10.0681,-78.1522,23.39,75,75,6,PE,1686087608
322,sydney,-33.8679,151.2073,12.99,90,90,20,AU,1686087039
323,oyama,36.3,139.8,20.75,66,66,46,JP,1686087667
324,international falls,48.6011,-93.411,24.52,63,63,75,US,1686087698
325,maumere,-8.6199,122.2111,24.25,76,76,6,ID,1686087698
326,berdigestyakh,62.0989,126.6992,12.13,60,60,14,RU,1686087698
327,buncrana,55.1333,-7.45,15.87,93,93,4,IE,1686087698
328,san jose del cabo,23.0589,-109.6977,33.6,41,41,0,MX,1686087698
329,rujiena,57.8975,25.3316,11.7,73,73,83,LV,1686087698
330,rudbar,30.15,62.6,29.99,12,12,0,AF,1686087698
331,manado,1.487,124.8455,23.43,94,94,20,ID,1686087699
332,lata,40.1629,-8.3327,19.49,82,82,100,PT,1686087699
333,aioun,16.6614,-9.6149,36.5,14,14,13,MR,1686087699
334,laojunmiao,39.8333,97.7333,14.34,31,31,2,CN,1686087699
335,midland,31.9974,-102.0779,29.71,34,34,0,US,1686087699
336,pikalevo,59.5183,34.1664,4.85,63,63,83,RU,1686087699
337,kendari,-3.945,122.4989,22.05,92,92,13,ID,1686087106
338,mooloolaba,-26.6833,153.1167,16.14,93,93,41,AU,1686087699
339,rio rancho,35.2334,-106.6645,30.54,31,31,0,US,1686087508
340,katsuura,35.1333,140.3,18.72,94,94,99,JP,1686087445
341,kokopo,-4.352,152.2633,26.74,75,75,100,PG,1686087699
342,leava,-14.3,-178.1667,27.72,76,76,99,WF,1686087700
343,port hedland,-20.3167,118.5667,14.03,77,77,59,AU,1686087700
344,el calafate,-50.3408,-72.2768,2.2,79,79,2,AR,1686087102
345,marataizes,-21.0433,-40.8244,20.71,79,79,1,BR,1686087511
346,iranshahr,27.2025,60.6848,34.19,22,22,9,IR,1686087700
347,bargaal,11.2864,51.0773,29.19,75,75,75,SO,1686087700
348,misratah,32.3754,15.0925,20.97,74,74,79,LY,1686087700
349,ar ruways,24.1103,52.7306,29.73,63,63,0,AE,1686087700
350,queenstown,-31.8976,26.8753,8.95,32,32,0,ZA,1686087700
351,newman,37.3138,-121.0208,28.19,39,39,7,US,1686087701
352,fortaleza,-3.7227,-38.5247,27.9,83,83,40,BR,1686087558
353,villa emilio carranza,19.9667,-96.6,29.21,69,69,30,MX,1686087701
354,richards bay,-28.783,32.0377,18.23,80,80,0,ZA,1686087701
355,kerikeri,-35.2268,173.9474,13.84,92,92,96,NZ,1686087701
356,loiza,18.4313,-65.8802,33.98,61,61,40,PR,1686087701
357,darazo,10.9938,10.4118,29.63,47,47,68,NG,1686087701
358,uturoa,-16.7333,-151.4333,26.47,71,71,87,PF,1686087701
359,mendoza,-32.8908,-68.8272,19.74,49,49,0,AR,1686087546
360,sivasli,38.4994,29.6836,15.35,71,71,1,TR,1686087702
361,pavlovsk,50.4578,40.1081,12.39,73,73,29,RU,1686087702
362,amungan,15.3652,119.9582,26.77,78,78,81,PH,1686087702
363,dunedin,-45.8742,170.5036,7.67,76,76,69,NZ,1686087438
364,trondheim,63.4305,10.3951,9.03,90,90,24,NO,1686087673
365,keflavik,64.0049,-22.5624,5.95,81,81,75,IS,1686087702
366,tuburan,6.6439,122.2736,25.05,78,78,100,PH,1686087702
367,mhamid,29.82,-5.72,32.23,20,20,100,MA,1686087702
368,kingston,17.997,-76.7936,30.69,76,76,75,JM,1686087702
369,darovskoy,58.77,47.9564,8.46,92,92,92,RU,1686087702
370,urangan,-25.3,152.9,19.94,67,67,40,AU,1686087107
371,bowen,-20.0167,148.2333,21.52,80,80,55,AU,1686087703
372,howard springs,-12.497,131.047,22.12,76,76,5,AU,1686087703
373,nouadhibou,20.931,-17.0347,22.99,83,83,0,MR,1686087703
374,kingscliff,-28.2667,153.5667,16.89,77,77,75,AU,1686087703
375,fereydun kenar,36.6864,52.5225,22.85,83,83,100,IR,1686087703
376,saynshand,44.8824,110.1163,16.72,46,46,71,MN,1686087703
377,astrakhan,46.3497,48.0408,16.93,55,55,0,RU,1686087703
378,srikakulam,18.3,83.9,29.29,81,81,96,IN,1686087703
379,bata,1.8639,9.7658,25.51,87,87,100,GQ,1686087703
380,rieti,42.4072,12.8592,17.56,94,94,2,IT,1686087704
381,panama city beach,30.1766,-85.8055,29.07,65,65,40,US,1686087136
382,nadvoitsy,63.8667,34.3167,4.75,69,69,47,RU,1686087704
383,nyurba,63.2842,118.3319,7.82,61,61,28,RU,1686087704
384,strelka,58.0728,93.0344,15.91,93,93,5,RU,1686087704
385,babat,-7.1128,112.1635,23.29,92,92,77,ID,1686087704
386,khuzdar,27.7384,66.6434,26.83,15,15,0,PK,1686087705
387,mahina,-17.5065,-149.489,28.87,54,54,20,PF,1686087705
388,fortuna,40.5982,-124.1573,18.51,76,76,0,US,1686087705
389,charlottetown,46.2352,-63.1267,11.98,96,96,100,CA,1686087501
390,kaoma,-14.7833,24.8,14.24,39,39,0,ZM,1686087706
391,taoudenni,22.6783,-3.9836,34.85,15,15,0,ML,1686087706
392,grand-bassam,5.2118,-3.7388,27.98,86,86,100,CI,1686087706
393,tralee,52.2704,-9.7026,12.87,91,91,18,IE,1686087706
394,lamu,-2.2717,40.902,26.12,79,79,60,KE,1686087706
395,ban karon,7.8477,98.2985,29.88,99,99,100,TH,1686087706
396,tobruk,32.0836,23.9764,20.8,83,83,21,LY,1686087706
397,bhum,18.4667,75.6667,30.28,48,48,4,IN,1686087706
398,ormara,25.2088,64.6357,29.16,84,84,0,PK,1686087707
399,elesbao veloso,-6.2019,-42.1403,30.29,36,36,79,BR,1686087707
400,tchintabaraden,15.8969,5.7985,32.44,20,20,79,NE,1686087707
401,kabompo,-13.5927,24.2008,14.95,45,45,1,ZM,1686087707
402,cole harbour,44.6724,-63.4751,11.21,92,92,100,CA,1686087707
403,konarka,19.9,86.1167,28.22,73,73,98,IN,1686087707
404,pastavy,55.1168,26.8326,11.2,76,76,2,BY,1686087707
405,pocone,-16.2567,-56.6228,24.39,31,31,10,BR,1686087707
406,dongcun,36.7767,121.1597,21.02,54,54,100,CN,1686087707
407,dakoro,14.5106,6.765,34.16,31,31,100,NE,1686087707
408,inhambane,-23.865,35.3833,22.13,88,88,0,MZ,1686087708
409,guerrero negro,27.9769,-114.0611,19.49,54,54,80,MX,1686087708
410,mao,39.8885,4.2658,20.31,83,83,0,ES,1686087708
411,san antonio de pale,-1.4014,5.6325,25.14,86,86,100,GQ,1686087708
412,flin flon,54.7682,-101.865,23.91,83,83,75,CA,1686087708
413,fedorovka,53.6314,62.7078,18.56,74,74,86,KZ,1686087708
414,kapoeta,4.7717,33.5903,27.93,41,41,84,SS,1686087708
415,ampanihy,-24.7,44.75,18.22,98,98,4,MG,1686087708
416,lompoc,34.6391,-120.4579,18.77,87,87,100,US,1686087708
417,palu,-0.8917,119.8707,24.31,96,96,100,ID,1686087709
418,sarangani,5.4033,125.4636,28.52,76,76,98,PH,1686087709
419,kamaishi,39.2667,141.8833,16.47,93,93,99,JP,1686087709
420,saint-joseph,-21.3667,55.6167,21.37,82,82,30,RE,1686087709
421,ixtapa,20.7,-105.2,31.41,49,49,1,MX,1686087709
422,tambopata,-12.7333,-69.1833,27.94,74,74,0,PE,1686087709
423,road town,18.4167,-64.6167,30.02,70,70,20,VG,1686087709
424,plastun,44.7561,136.2939,14.93,75,75,100,RU,1686087709
425,ikovka,55.6089,64.9375,18.08,90,90,100,RU,1686087709
426,island harbour,50.724,-1.2758,14.62,76,76,0,GB,1686087710
427,port blair,11.6667,92.75,25.02,94,94,100,IN,1686087710
428,agat village,13.3886,144.6585,28.53,80,80,0,GU,1686087710
429,macapa,0.0389,-51.0664,28.99,79,79,20,BR,1686087710
430,acarau,-2.8856,-40.12,26.14,80,80,0,BR,1686087710
431,sinop,41.7711,34.8709,11.64,85,85,13,TR,1686087710
432,dongsheng,39.8161,109.9776,18.11,31,31,4,CN,1686087710
433,dajal,29.5577,70.3762,30.36,43,43,8,PK,1686087710
434,nowshahr,36.649,51.496,20.97,94,94,75,IR,1686087710
435,aykhal,66.0,111.5,3.25,62,62,3,RU,1686087711
436,faratsiho,-19.4,46.95,10.03,88,88,2,MG,1686087711
437,kadiri,14.1167,78.1667,28.3,60,60,86,IN,1686087711
438,kayangel,8.0823,134.7173,28.51,80,80,100,PW,1686087711
439,prince rupert,54.3161,-130.3201,14.05,68,68,0,CA,1686087654
440,lerwick,60.1545,-1.1494,10.0,81,81,100,GB,1686087711
441,dumai,1.6833,101.45,23.42,99,99,100,ID,1686087711
442,broken hill,-31.95,141.4333,16.61,86,86,98,AU,1686087711
443,ust'-uda,54.1742,103.0304,10.48,62,62,42,RU,1686087712
444,salmon arm,50.6998,-119.3024,29.62,21,21,0,CA,1686087521
445,haflong,25.1833,93.0333,24.9,73,73,67,IN,1686087712
446,egilsstadir,65.2653,-14.3948,5.95,81,81,75,IS,1686087712
447,inarajan village,13.2736,144.7484,28.55,85,85,100,GU,1686087712
448,pangody,65.85,74.4859,14.28,54,54,76,RU,1686087712
449,pho chai,16.3283,103.7703,25.48,87,87,100,TH,1686087712
450,lethem,3.3803,-59.7968,26.77,79,79,76,GY,1686087712
451,dehdasht,30.7949,50.5646,27.41,22,22,50,IR,1686087712
452,luderitz,-26.6481,15.1594,11.9,92,92,1,NA,1686087712
453,port-vila,-17.7338,168.3219,23.78,78,78,20,VU,1686087713
454,el porvenir,13.7617,-87.3458,24.63,51,51,100,HN,1686087713
455,yerofey pavlovich,53.9667,121.9667,9.04,75,75,92,RU,1686087713
456,veraval,20.9,70.3667,28.62,80,80,2,IN,1686087713
457,san cristobal,7.7669,-72.225,27.1,91,91,75,VE,1686087713
458,ca mau,9.1769,105.15,25.66,89,89,100,VN,1686087713
459,woolgoolga,-30.1106,153.2007,13.91,72,72,88,AU,1686087713
460,khomeyn,33.6423,50.0789,21.35,29,29,100,IR,1686087713
461,lianzhou,24.7811,112.3825,24.16,98,98,85,CN,1686087713
462,sebastopol,44.6,33.5333,14.44,47,47,12,UA,1686087580
463,hammerfest,70.6634,23.6821,3.25,87,87,75,NO,1686087426
464,tual,-5.6667,132.75,27.26,83,83,95,ID,1686087714
465,takoradi,4.8845,-1.7554,26.63,83,83,100,GH,1686087714
466,darnah,32.767,22.6367,20.1,86,86,4,LY,1686087714
467,glace bay,46.1969,-59.957,9.49,95,95,100,CA,1686087714
468,hengchun,22.0042,120.7439,27.23,84,84,30,TW,1686087714
469,ventspils,57.3894,21.5606,7.96,100,100,14,LV,1686087714
470,kone,-21.0595,164.8658,22.13,53,53,11,NC,1686087714
471,chakulia,22.4833,86.7167,30.61,43,43,3,IN,1686087714
472,snihurivka,47.0758,32.8052,14.51,57,57,28,UA,1686087715
473,kavaratti,10.5669,72.642,29.82,75,75,94,IN,1686087715
474,gadzhiyevo,69.2551,33.3362,3.46,75,75,99,RU,1686087715
475,zholymbet,51.7433,71.7122,21.11,51,51,99,KZ,1686087715
476,al jumum,21.6169,39.6981,34.04,34,34,81,SA,1686087715
477,rio grande,-32.035,-52.0986,17.06,82,82,12,BR,1686087715
478,sao joao da barra,-21.6403,-41.0511,22.05,77,77,2,BR,1686087715
479,dauphin,51.1494,-100.0502,27.08,61,61,20,CA,1686087715
480,jiuquan,39.7432,98.5174,17.81,25,25,3,CN,1686087715
481,nicoya,10.1483,-85.452,30.4,66,66,92,CR,1686087716
482,coquimbo,-29.9533,-71.3436,15.85,82,82,40,CL,1686087716
483,fisterra,42.9049,-9.2629,22.23,70,70,100,ES,1686087716
484,taroudant,30.4703,-8.877,21.42,43,43,66,MA,1686087716
485,chaykovskiy,56.7686,54.1148,10.74,80,80,100,RU,1686087716
486,hinton,53.4001,-117.5857,23.84,13,13,3,CA,1686087716
487,saint-pierre,-21.3393,55.4781,21.98,64,64,0,RE,1686087716
488,dhangadhi,28.7079,80.5961,27.11,38,38,0,NP,1686087542
489,vilyuchinsk,52.9306,158.4028,13.15,80,80,91,RU,1686087716
490,ballina,-28.8667,153.5667,14.88,67,67,83,AU,1686087717
491,cooper's town,26.8667,-77.5167,25.57,70,70,100,BS,1686087717
492,ad dabbah,18.05,30.95,33.31,33,33,93,SD,1686087717
493,kapsan-up,41.0903,128.2933,12.4,77,77,10,KP,1686087717
494,kargat,55.1956,80.2811,19.49,67,67,6,RU,1686087717
495,amga,60.8953,131.9608,14.66,65,65,93,RU,1686087717
496,brisas de zicatela,15.8369,-97.0419,30.01,63,63,44,MX,1686087717
497,mathba,22.2855,89.9629,29.13,79,79,88,BD,1686087718
498,qarazhal,48.0078,70.7903,19.39,40,40,29,KZ,1686087719
499,luumaki,60.9262,27.5814,10.03,94,94,100,FI,1686087719
500,awjilah,29.1081,21.2869,31.12,22,22,91,LY,1686087719
501,siniscola,40.5719,9.6922,19.75,87,87,86,IT,1686087719
502,villa gesell,-37.2639,-56.973,15.59,92,92,100,AR,1686087693
503,jodar,37.8406,-3.3526,24.72,46,46,100,ES,1686087719
504,aketi,2.7388,23.7833,23.04,82,82,45,CD,1686087719
505,calama,-22.4667,-68.9333,22.27,4,4,0,CL,1686087719
506,iaciara,-14.0958,-46.6317,22.38,33,33,11,BR,1686087720
507,mareeba,-17.0,145.4333,20.24,90,90,99,AU,1686087720
508,porangatu,-13.4408,-49.1486,25.21,39,39,77,BR,1686087440
509,jiaozhou,36.2839,120.0033,19.98,63,63,80,CN,1686087720
510,fonte boa,-2.4959,-66.2662,24.79,95,95,27,BR,1686087720
511,puerto lempira,15.2667,-83.7667,30.08,70,70,40,HN,1686087720
512,ha'il,27.5219,41.6907,27.01,34,34,0,SA,1686087550
513,trairi,-3.2778,-39.2689,24.83,86,86,6,BR,1686087720
514,kibre mengist,5.8833,38.9833,15.17,96,96,88,ET,1686087720
515,siwa oasis,29.2041,25.5195,28.08,33,33,37,EG,1686087720
516,montella,40.8437,15.0179,17.77,94,94,100,IT,1686087721
517,codrington,-38.2667,141.9667,15.37,71,71,100,AU,1686087721
518,prince george,53.9166,-122.753,21.81,23,23,0,CA,1686087631
519,tengrela,10.4869,-6.4097,27.84,58,58,74,CI,1686087721
520,wagar,16.1525,36.2032,31.68,39,39,35,SD,1686087721
521,ravar,31.2656,56.8055,28.42,25,25,80,IR,1686087721
522,roma,43.2128,-75.4557,20.21,57,57,100,US,1686087720
523,port augusta,-32.5,137.7667,17.22,92,92,57,AU,1686087721
524,garissa,-0.4536,39.6401,24.15,78,78,13,KE,1686087721
525,khash,28.2211,61.2158,26.33,26,26,61,IR,1686087721
526,puerto baquerizo moreno,-0.9,-89.6,25.51,79,79,64,EC,1686087722
527,samaro,25.2815,69.3965,29.46,71,71,0,PK,1686087722
528,formosa,-26.1775,-58.1781,25.99,75,75,0,AR,1686087490
529,geraldton,-28.7667,114.6,12.23,82,82,40,AU,1686087605
530,korla,41.7597,86.1469,24.32,24,24,17,CN,1686087722
531,pelabuhanratu,-6.9875,106.5514,25.16,91,91,100,ID,1686087722
532,yelovo,57.0538,54.9207,10.22,80,80,100,RU,1686087722
533,yekaterinovka,52.0508,44.3451,11.09,78,78,37,RU,1686087723
534,ust-tsilma,65.441,52.1498,3.85,82,82,55,RU,1686087723
535,opatija,45.3392,14.3083,17.87,92,92,28,HR,1686087723
536,filadelfia,39.9523,-75.1638,27.14,52,52,100,US,1686087603
537,kearney,40.6995,-99.0815,30.19,40,40,0,US,1686087704
538,walvis bay,-22.9575,14.5053,13.94,82,82,0,NA,1686087723
539,sansanne-mango,10.3592,0.4708,28.86,67,67,98,TG,1686087723
540,port saint john's,-31.6229,29.5448,16.44,61,61,0,ZA,1686087725
541,ghat,24.9647,10.1728,30.52,20,20,30,LY,1686087725
542,helena,46.5927,-112.0361,22.12,59,59,0,US,1686087718
543,ambovombe,-25.1667,46.0833,20.62,91,91,0,MG,1686087725
544,tongchuanshi,35.0806,109.0897,20.65,43,43,100,CN,1686087725
545,molochnoye,59.2917,39.6787,6.9,71,71,72,RU,1686087725
546,bamako,12.65,-8.0,31.23,58,58,20,ML,1686087725
547,parauapebas,-6.0675,-49.9022,25.99,83,83,0,BR,1686087522
548,oamaru,-45.0784,170.9801,6.24,76,76,77,NZ,1686087726
549,mae hong son,19.3003,97.9685,24.41,99,99,100,TH,1686087726
550,qui nhon,13.7667,109.2333,26.85,79,79,98,VN,1686087726
551,kailua-kona,19.6406,-155.9956,28.49,71,71,20,US,1686087434
552,luanda,-8.8368,13.2343,24.0,92,92,75,AO,1686087726
553,skurup,55.4784,13.5019,14.67,76,76,0,SE,1686087726
554,abepura,-2.6333,140.5833,24.45,88,88,20,ID,1686087726
555,nanchang,28.6833,115.8833,21.94,91,91,6,CN,1686087727
556,ola,59.5833,151.2833,13.97,68,68,86,RU,1686087727
557,glencoe,-28.1783,30.147,11.07,35,35,0,ZA,1686087727
558,cadale,2.7603,46.3222,27.21,77,77,80,SO,1686087727
559,khovd,48.0056,91.6419,18.96,35,35,5,MN,1686087727
560,mkushi,-13.6202,29.3939,14.93,56,56,0,ZM,1686087727
561,keetmanshoop,-26.5833,18.1333,14.51,14,14,0,NA,1686087727
562,kindia,10.0569,-12.8658,23.69,91,91,47,GN,1686087728
563,tuy hoa,13.0833,109.3,26.05,81,81,99,VN,1686087728
564,jinchang,38.4953,102.1739,17.17,30,30,64,CN,1686087728
565,raton,36.9034,-104.4391,22.19,79,79,73,US,1686087728
566,smithers,54.7804,-127.1743,17.18,39,39,20,CA,1686087728
567,andovoranto,-18.95,49.1,20.77,94,94,29,MG,1686087728
